[
  {
    "_id": "5d21baa8e2018f3976d5edca",
    "latitude": 19.155001,
    "longitude": 72.849998,
    "carName": "Alto",
    "carColor": "gray"
  },
  {
    "_id": "5d21baa8faedf4d4e98184a9",
    "latitude": 24.794500,
    "longitude": 73.055000,
    "carName": "Tata",
    "carColor": "red"
  },
  {
    "_id": "5d21baa828d382f40160c959",
    "latitude": 21.250000,
    "longitude": 81.629997,
    "carName": "Hyundai",
    "carColor": "gray"
  },
  {
    "_id": "5d21baa8d02f0c436337699a",
    "latitude": 16.166700,
    "longitude": 74.833298,
    "carName": "Alto",
    "carColor": "green"
  },
  {
    "_id": "5d21baa870e4820cb53fabf3",
    "latitude": 26.850000,
    "longitude": 80.949997,
    "carName": "Toyota",
    "carColor": "gray"
  },
  {
    "_id": "5d21baa8bb2f685f64dbb764",
    "latitude": 28.610001,
    "longitude": 77.230003,
    "carName": "Hyundai",
    "carColor": "yellow"
  },
  {
    "_id": "5d21baa8f4c500fbc473d10c",
    "latitude": 19.076090,
    "longitude": 72.877426,
    "carName": "Maaruti",
    "carColor": "green"
  },
  {
    "_id": "5d21baa834f1873ea5879cd6",
    "latitude": 14.167040,
    "longitude": 75.040298,
    "carName": "Hyundai",
    "carColor": "green"
  },
  {
    "_id": "5d21baa86424afd70de46949",
      "latitude": 26.540457,
    "longitude": 88.719391,
    "carName": "Tata",
    "carColor": "green"
  }
]
